点位名称,城市,经度,纬度,今日吞吐,状态
华东上海中心仓,上海,121.4737,31.2304,4820,高负荷
华北北京枢纽仓,北京,116.4074,39.9042,4360,正常
华南广州中心仓,广州,113.2644,23.1291,4150,正常
西南成都中心仓,成都,104.0668,30.5728,3580,补货中
华中武汉中转仓,武汉,114.3055,30.5928,3920,高负荷
西北西安枢纽仓,西安,108.9398,34.3416,2860,正常
东北沈阳中转仓,沈阳,123.4315,41.8057,2480,正常
东南厦门前置仓,厦门,118.0894,24.4798,2260,补货中
